[
  { "id": "htl-001", "name": "Kandy Hill Retreat", "city": "Kandy", "location": { "lat": 7.2906, "lng": 80.6337 }, "priceRange": "mid", "pricePerNightUsd": 55, "amenities": ["wifi", "breakfast", "lake-view"], "averageRating": 4.5, "tags": ["culture", "romantic"] },
  { "id": "htl-002", "name": "Sigiriya Jungle Lodge", "city": "Sigiriya", "location": { "lat": 7.9520, "lng": 80.7550 }, "priceRange": "premium", "pricePerNightUsd": 120, "amenities": ["wifi", "pool", "breakfast", "rock-view"], "averageRating": 4.8, "tags": ["nature", "romantic"] },
  { "id": "htl-003", "name": "Ella Backpackers Nest", "city": "Ella", "location": { "lat": 6.8667, "lng": 81.0466 }, "priceRange": "budget", "pricePerNightUsd": 18, "amenities": ["wifi", "shared-kitchen", "mountain-view"], "averageRating": 4.3, "tags": ["backpacker", "social"] },
  { "id": "htl-004", "name": "Galle Fort Boutique Villa", "city": "Galle", "location": { "lat": 6.0257, "lng": 80.2168 }, "priceRange": "premium", "pricePerNightUsd": 140, "amenities": ["wifi", "pool", "breakfast", "ac"], "averageRating": 4.9, "tags": ["heritage", "romantic"] },
  { "id": "htl-005", "name": "Colombo City Comfort Inn", "city": "Colombo", "location": { "lat": 6.9271, "lng": 79.8612 }, "priceRange": "mid", "pricePerNightUsd": 48, "amenities": ["wifi", "gym", "breakfast", "ac"], "averageRating": 4.2, "tags": ["business", "family"] },
  { "id": "htl-006", "name": "Mirissa Beachfront Cabanas", "city": "Mirissa", "location": { "lat": 5.9475, "lng": 80.4590 }, "priceRange": "mid", "pricePerNightUsd": 45, "amenities": ["wifi", "beach-access", "breakfast"], "averageRating": 4.6, "tags": ["beach", "surf"] },
  { "id": "htl-007", "name": "Nuwara Eliya Tea Manor", "city": "Nuwara Eliya", "location": { "lat": 6.9707, "lng": 80.7829 }, "priceRange": "premium", "pricePerNightUsd": 95, "amenities": ["wifi", "fireplace", "breakfast", "tea-tour"], "averageRating": 4.7, "tags": ["colonial", "family"] },
  { "id": "htl-008", "name": "Anuradhapura Heritage Rest", "city": "Anuradhapura", "location": { "lat": 8.3150, "lng": 80.4009 }, "priceRange": "budget", "pricePerNightUsd": 22, "amenities": ["wifi", "bicycle-rental"], "averageRating": 4.0, "tags": ["heritage", "budget"] },
  { "id": "htl-009", "name": "Yala Safari Camp", "city": "Yala", "location": { "lat": 6.3697, "lng": 81.5041 }, "priceRange": "premium", "pricePerNightUsd": 160, "amenities": ["wifi", "safari-tours", "all-meals"], "averageRating": 4.85, "tags": ["wildlife", "luxury"] },
  { "id": "htl-010", "name": "Jaffna Lagoon View Lodge", "city": "Jaffna", "location": { "lat": 9.6650, "lng": 80.0100 }, "priceRange": "budget", "pricePerNightUsd": 25, "amenities": ["wifi", "breakfast"], "averageRating": 4.1, "tags": ["local", "quiet"] }
]
